Location Name,Suburb,Latitude,Longitude,TSN
Zig Zag Station,Clarence,-33.4718103,150.202088,278630
Young Coach Stop,Young,-34.311437,148.297143,25941
Yetholme Coach Stop,Yetholme,-33.446496,149.829108,279512
Yerrinbool Station,Yerrinbool,-34.37174006,150.5434957,257540
Yerong Creek Coach Stop,Yerong,-35.387249,147.058092,264216
Yennora Station,Yennora,-33.8647184,150.9710073,216120
Yenda Coach Stop,Yenda,-34.250153,146.195033,26811
Yass Town Coach Stop,Yass,-34.839966,148.910809,25826
Yass Junction Station,Yass,-34.808995,148.915387,25821
Yarrowyck Coach Stop,Yarrowyck,-30.475743,151.376383,235821
Yarrabandai Coach Stop,Yarrabandai,-33.128795,147.576893,28751
Yanco Coach Stop,Yanco,-34.60399,146.409827,27032
Yamba West Coach Stop,Yamba,-29.429468,153.326484,246438
Yamba Coach Stop,Yamba,-29.438237,153.35663,24641
Yagoona Station,Yagoona,-33.90655337,151.0241519,219910
Wyong Station,Wyong,-33.28547923,151.4252562,225920
Wynyard Station,Sydney,-33.86589799,151.2057893,200080
Wyee Station,Wyee,-33.18044789,151.4871198,225940
Wyalong Coach Stop,Wyalong,-33.925711,147.242402,26713
Woy Woy Station,Woy,-33.48511249,151.3236239,225610
Woonona Station,Woonona,-34.35023047,150.9149538,251710
Woombah Coach Stop,Woombah,-29.360244,153.282359,246913
Woolwich Wharf,Woolwich,-33.83875627,151.1760428,211099
Woolooware Station,Woolooware,-34.04771809,151.1439953,223010
Woodstock Coach Stop,Woodstock,-33.743846,148.84842,27931
Woodford Station,Woodford,-33.73544928,150.4819174,277810
Woodburn Coach Stop (southbound),Woodburn,-29.071268,153.344859,24724
Woodburn Coach Stop (northbound),Woodburn,-29.071317,153.343813,24723
Wondalga Coach Stop,Wondalga,-35.408567,148.121105,272922
Wondabyne Station,Wondabyne,-33.49213536,151.2570108,225010
Wombarra Station,Wombarra,-34.27593294,150.953145,251520
Wolumla Coach Stop,Wolumla,-36.829958,149.813349,25502
Wollstonecraft Station,Wollstonecraft,-33.83179487,151.191895,206510
Wollongong Station,Wollongong,-34.42701617,150.8882431,250020
Wollongbar Coach Stop,Wollongbar,-28.825911,153.415019,24773
Wolli Creek Station,Wolli,-33.92854683,151.1541132,220510
Wirragulla Station,Wirragulla,-32.4617735,151.743457,242030
Wingham Town Coach Stop,Wingham,-31.869226,152.374623,24294
Wingham Station,Wingham,-31.86809,152.367636,24291
Wingello Station,Wingello,-34.69218018,150.1583854,257910
Windsor Station,Windsor,-33.61392767,150.811408,275620
Willow Tree Town Coach Stop (southbound),Willow,-31.648968,150.726361,233912
Willow Tree Town Coach Stop (northbound),Willow,-31.648968,150.726361,233913
Willow Tree Station,Willow,-31.650065,150.726123,23391
Wiley Park Station,Wiley,-33.92300854,151.0672762,219520
Wilcannia Coach Stop,Wilcannia,-31.558417,143.37759,28363
Whitton Coach Stop,Whitton,-34.51791,146.183194,27052
Westmead Station,Westmead,-33.80852937,150.9880115,214510
West Wyalong Coach Stop,West,-33.923826,147.205261,26711
West Ryde Station,West,-33.80717213,151.0902289,211420
Werris Creek Station,Werris,-31.350139,150.646464,23411
Werrington Station,Werrington,-33.7592923,150.7583397,274710
Wentworthville Station,Wentworthville,-33.80719295,150.9726376,214520
Wentworth Park Light Rail,Pyrmont,-33.87436029,151.1939664,200953
Wentworth Falls Station,Wentworth,-33.70947192,150.3763114,278210
Wentworth Coach Stop,Wentworth,-34.106135,141.919144,264813
Wellington Station,Wellington,-32.554036,148.946832,28202
Wee Waa Coach Stop,Wee,-30.224656,149.444831,23881
Waverton Station,Waverton,-33.83824525,151.1978555,206020
Wauchope Station,Wauchope,-31.455909,152.736526,24461
Watsons Bay Wharf,Watsons,-33.84343945,151.28104,2030164
Waterfall Station,Waterfall,-34.13438522,150.9945115,223330
Warwick Farm Station,Warwick,-33.91344996,150.9350364,217010
Warringah Mall,Brookvale,-33.767001,151.269114,210020
Warrimoo Station,Warrimoo,-33.72119644,150.6019792,277420
Warriewood B-Line,Warriewood,-33.696788,151.301419,2101131
Warren Coach Stop,Warren,-31.701,147.835,28241
Warrawee Station,Warrawee,-33.72428546,151.1217568,207420
Warnervale Station,Warnervale,-33.24755931,151.4485623,225930
Warialda Rail Coach Stop,Warialda,-29.581643,150.537189,24023
Warialda Coach Stop,Warialda,-29.542141,150.570258,24022
Wards River Coach Stop (southbound),Wards,-32.221007,151.937246,242210
Wards River Coach Stop (northbound),Wards,-32.220766,151.937109,24222
Wardell Coach Stop,Wardell,-28.950207,153.465201,24774
Waratah Station,Waratah,-32.90276555,151.7316708,230410
Waratah Mills Light Rail,Dulwich,-33.89877075,151.1401223,220320
Warabrook Station,Warabrook,-32.88705464,151.7098902,230420
Wansey Road Light Rail,Randwick,-33.910519,151.235208,2031157
Wallerawang Coach Stop (southbound),Wallerawang,-33.411067,150.066586,569030
Wallerawang Coach Stop (northbound),Wallerawang,-33.411304,150.065125,284514
Wallendbeen Coach Stop,Wallendbeen,-34.529114,148.162677,25881
Wallarobba Station,Wallarobba,-32.49613996,151.6956798,242020
Walgett Coach Stop,Walgett,-30.023677,148.117659,28321
Walcha Road Station,Walcha,-30.940998,151.40217,23541
Walcha Coach Stop,Walcha,-30.98538,151.591012,23543
Waitara Station,Waitara,-33.70999326,151.1043411,207710
Wahroonga Station,Wahroonga,-33.7174292,151.1168923,207610
Wagga Wagga Sturt Mall (south),Wagga,-35.113239,147.369963,265069
Wagga Wagga Sturt Mall (north),Wagga,-35.112673,147.369875,265081
Wagga Wagga Station,Turvey,-35.120418,147.36845,26501
Wagga Wagga CSU Campus,Charles,-35.065406,147.35998,26783
Wagga Wagga Court House (south),Wagga,-35.106995,147.370143,265010
Wagga Wagga Court House (north),Wagga,-35.106211,147.370015,265011
Vineyard Station,Vineyard,-33.65050415,150.8512458,276520
Villawood Station,Villawood,-33.88090168,150.9760479,216320
Victoria Street Station,East,-32.75095775,151.5938259,232320
Valley Heights Station,Valley,-33.70446573,150.583813,277710
Urunga Station,Urunga,-30.499656,153.018678,24551
Uranquinty Coach Stop,Uranquinty,-35.193558,147.245427,265253
Urana Coach Stop,Urana,-35.330458,146.265767,26452
Uralla Station,Uralla,-30.644076,151.505202,235813
Upper Manilla Coach Stop,Upper,-30.63252,150.671911,23463
UNSW High Street Light Rail,Randwick,-33.91637,151.235534,2031156
UNSW Anzac Parade Light Rail,Kensington,-33.916652,151.225903,203360
Ungarie Coach Stop,Ungarie,-33.639366,146.973846,26693
Unanderra Station,Unanderra,-34.45442878,150.8462629,252610
Ulmarra Coach Stop,Ulmarra,-29.631215,153.027982,24622
Tyndale Coach Stop,Tyndale,-29.564928,153.143181,24603
Tweed Heads Coach Stop (southbound),Tweed,-28.17216,153.543383,24852
Tweed Heads Coach Stop (northbound),Tweed,-28.170715,153.543329,24851
Turrella Station,Turrella,-33.92995296,151.139909,220530
Turramurra Station,Turramurra,-33.73218221,151.1282818,207410
Tuncurry Coach Stop,Tuncurry,-32.174518,152.499505,2428133
Tumut Coach Stop,Tumut,-35.301369,148.222665,27201
Tumblong Coach Stop,Tumblong,-35.136066,148.009754,27292
Tumbarumba Coach Stop,Tumbarumba,-35.775782,148.009214,26531
Tullibigeal Coach Stop,Tullibigeal,-33.421526,146.72815,26692
Tuggerah Station,Tuggerah,-33.30808648,151.4201526,225910
Trangie Coach Stop,Trangie,-32.031474,147.984789,28231
Towradgi Station,Towradgi,-34.38468632,150.9012389,251830
Town Hall Station,Sydney,-33.87359633,151.2068993,200070
Toongabbie Station,Toongabbie,-33.787263,150.9514373,214610
Tomingley Coach Stop,Tomingley,-32.571325,148.221938,28691
Tocumwal Coach Stop,Tocumwal,-35.811915,145.567461,27141
Tiona Park Coach Stop,Tiona,-32.304866,152.519993,24284
Tingha Coach Stop,Tingha,-29.955875,151.21195,23692
Thornton Station,Thornton,-32.78359464,151.6398308,232240
Thornleigh Station,Thornleigh,-33.7318712,151.078281,212010
Thirroul Station,Thirroul,-34.3184244,150.9186524,251550
The Star Light Rail,Pyrmont,-33.8673489,151.1952012,200947
The Rock Station,The,-35.271764,147.118301,26551
Teralba Station,Teralba,-32.96271245,151.6034578,228420
Tenterfield Coach Stop,Tenterfield,-29.05551,152.019563,23721
Tempe Station,Tempe,-33.92450473,151.1565073,204430
Temora Coach Stop,Temora,-34.446853,147.534099,26662
Telarah Station,Telarah,-32.72391026,151.5396348,232030
Tea Gardens turnoff Coach Stop,North,-32.614733,152.079757,2324156
Tea Gardens Coach Stop,Tea,-32.667557,152.160429,2324157
Taverner's Hill Light Rail,Leichhardt,-33.88930105,151.1452209,204093
Tascott Station,Tascott,-33.45135695,151.318056,225020
Tarro Station,Tarro,-32.80930922,151.6699415,232220
Taronga Zoo Wharf,Mosman,-33.8463431,151.2395142,208899
Taree Town Coach Stop,Taree,-31.910456,152.466139,243035
Taree Station,Taree,-31.906437,152.456963,24301
Tarana Station,Tarana,-33.524107,149.907594,27871
Tarago Station,Tarago,-35.069961,149.651365,258011
Tamworth Station,Tamworth,-31.087262,150.930848,234012
Tallong Station,Tallong,-34.7183306,150.0865057,257950
Tahmoor Station,Tahmoor,-34.22367667,150.5899106,257310
Sydney Olympic Park Wharf,Sydney,-33.82220671,151.079094,21271
Sydenham Station,Sydenham,-33.9143732,151.1666456,204420
Sutherland Station,Sutherland,-34.03178692,151.0571901,223210
Surry Hills Light Rail,Surry,-33.888102,151.211879,201029
Summer Hill Station,Summer,-33.89056077,151.1394451,213010
Suffolk Park Coach Stop,SUFFOLK,-28.686927,153.607927,24812
Stuart Town Station,Stuart,-32.801192,149.07832,28201
Stroud Road Coach Stop,Stroud,-32.345307,151.930093,24151
Stroud Coach Stop,Stroud,-32.403962,151.967514,24252
Strathfield Station,Strathfield,-33.8718105,151.0944271,213510
Stratford Coach Stop,Stratford,-32.11757,151.937879,24226
Stockton Wharf,Stockton,-32.919641,151.782514,229574
Stockinbingal Coach Stop,Stockinbingal,-34.500339,147.880771,27252
Stanwell Park Station,Stanwell,-34.22658642,150.980938,250840
Stanmore Station,Stanmore,-33.89454885,151.1640093,204810
St Peters Station,St,-33.9073952,151.1802675,204410
St Marys Station,St,-33.76225585,150.776029,276010
St Leonards Station,St,-33.82238888,151.1941268,206520
St James Station,Sydney,-33.87069742,151.2118374,200050
Springwood Station,Springwood,-33.6988416,150.5639799,277720
Spring Hill Coach Stop,Spring,-33.398855,149.152388,28005
Spit Junction B-Line,Mosman,-33.824148,151.241656,2088233
South Tweed Heads Coach Stop (southbound),Tweed,-28.195182,153.543007,24862
South Tweed Heads Coach Stop (northbound),Tweed,-28.195182,153.543007,24861
South Mosman Wharf,Mosman,-33.84326831,151.2325961,208878
Somerton Coach Stop,Somerton,-30.93779,150.63499,2340109
Smith Lake turnoff Coach Stop,Smiths,-32.370556,152.498753,24285
Singleton Station,Singleton,-32.57177047,151.1651707,233010
Shellharbour Junction Station,Dunmore,-34.59128255,150.8447273,2529218
Seven Hills Station,Seven,-33.77443043,150.9365134,214710
Sefton Station,Sefton,-33.88523616,151.0112833,216210
Scone Station,Scone,-32.04694089,150.8669023,233710
Schofields Station,Schofields,-33.70447724,150.8738169,276220
Scarborough Station,Scarborough,-34.26498655,150.9657909,251510
Sawtell Station,Toormina,-30.359429,153.097419,24521
Sandgate Station,Sandgate,-32.87189652,151.7026047,230430
Rylstone Hospital Coach Stop,Rylstone,-32.803779,149.974521,28491
Rylstone Coach Stop,Rylstone,-32.798463,149.970508,28492
Rydalmere Wharf,Rydalmere,-33.81799002,151.0437536,211655
Rydal Station,Rydal,-33.483565,150.031812,2790128
Running Stream Coach Stop,Running,-33.031302,149.900508,28501
Rozelle Bay Light Rail,Annandale,-33.87181104,151.1727016,203817
Royal Randwick Light Rail,Randwick,-33.905183,151.22883,202158
Rouse Hill Bus Interchange,Rouse,-33.69175333,150.9241739,2155227
Roseville Station,Roseville,-33.78422026,151.177266,206910
Rose Bay Wharf,Rose,-33.87094819,151.2621217,202972
Rooty Hill Station,Rooty,-33.77151173,150.8450187,276610
Rockdale Station,Rockdale,-33.95188027,151.1368616,221620
Robertson Coach Stop,Robertson,-34.589383,150.598353,2577146
Riverwood Station,Riverwood,-33.95153541,151.0520353,221010
Riverstone Station,Riverstone,-33.67904337,150.8602679,276510
Richmond Station,Richmond,-33.59911164,150.753211,275320
Rhodes Station,Rhodes,-33.83053036,151.0870323,213820
Revesby Station,Revesby,-33.95246003,151.0148384,221210
Regents Park Station,Regents,-33.88298889,151.0241875,214310
Redfern Station,Redfern,-33.8923699,151.1984847,201510
Raymond Terrace Coach Stop,Raymond,-32.764244,151.744386,232499
Randwick Light Rail,Randwick,-33.917128,151.240527,2031167
Railway Square Bus Interchange,Chippendale,-33.88362346,151.2034191,200812
Raglan Coach Stop,Raglan,-33.422388,149.647266,279535
QVB Light Rail,Sydney,-33.871579,151.206961,2000171
Quirindi Station,Quirindi,-31.505399,150.681098,23431
Queens Wharf Light Rail,Newcastle,-32.926347,151.781564,2300135
Queens Wharf,Newcastle,-32.92542,151.780789,2300146
Queanbeyan Station,Queanbeyan,-35.34289,149.227651,26201
Queanbeyan Bus Interchange,Queanbeyan,-35.34973,149.235289,2620146
Quakers Hill Station,Quakers,-33.72802483,150.886725,276310
Pyrmont Bay Wharf,Pyrmont,-33.86844161,151.1987285,2000260
Pyrmont Bay Light Rail,Pyrmont,-33.86920237,151.19755,200946
Pymble Station,Pymble,-33.74472888,151.142138,207310
Punchbowl Station,Punchbowl,-33.92537752,151.055867,219610
Prairiewood - Stockland Mall Bus Interchange,Bossley,-33.85861799,150.8968524,2176261
Pottsville Coach Stop,Pottsville,-28.384369,153.566986,24891
Portland East Coach Stop,Portland,-33.356065,149.994868,284731
Portland Coach Stop,Portland,-33.352862,149.979461,284719
Port Macquarie Coach Stop,Port,-31.43435,152.907169,2444192
Port Macquarie Base Hospital Coach Stop,Port,-31.452766,152.878373,2444177
Port Kembla Station,Port,-34.47724493,150.9019223,250540
Port Kembla North Station,Port,-34.47276667,150.8880483,250530
Point Clare Station,Point,-33.44577008,151.328556,225030
Pirrama Park Wharf,Pyrmont,-33.864614,151.191035,200956
Picton Station,Picton,-34.17914657,150.6126016,257110
Petersham Station,Petersham,-33.8938594,151.1551562,204910
Penshurst Station,Penshurst,-33.96612954,151.0893865,222210
Penrose Station,Penrose,-34.67255107,150.2117555,257920
Penrith Station,Penrith,-33.75005529,150.6961348,275010
Pennant Hills Station,Pennant,-33.73793863,151.0725297,212020
Pendle Hill Station,Pendle,-33.8013479,150.9563427,214530
Peak Hill Coach Stop,Peak,-32.725638,148.191042,28693
Paterson Station,Paterson,-32.60240094,151.6146372,242110
Parramatta Wharf,Parramatta,-33.81391554,151.010585,2150112
Parramatta Station,Parramatta,-33.81757926,151.0055351,215020
Parkes Station,Parkes,-33.142132,148.173185,28701
Panania Station,Panania,-33.95431112,150.9978261,221310
Pambula Coach Stop,Pambula,-36.930474,149.875171,254918
Palmers Island Coach Stop,Palmers,-29.420222,153.288966,24639
Padstow Station,Padstow,-33.95189202,151.0325572,221110
Paddy's Markets Light Rail,Haymarket,-33.87925321,151.2027409,2000202
Pacific Palms Coach Stop (southbound),Blueys,-32.348171,152.536272,24286
Pacific Palms Coach Stop (northbound),Blueys,-32.347629,152.535341,2428160
Ourimbah Station,Ourimbah,-33.35960353,151.3699892,225810
Otford Station,Otford,-34.21020004,151.0060039,250830
Orange Station,Orange,-33.286992,149.103703,28001
Ootha Coach Stop,Ootha,-33.121352,147.448015,287521
Olympic Park Station,Sydney,-33.84652013,151.0695472,212710
Old Cremorne Wharf,Cremorne,-33.84092232,151.2305011,209038
Ocean Shores Coach Stop,Ocean,-28.524816,153.545954,248330
Oberon Coach Stop,Oberon,-33.703707,149.855614,27873
Oatley Station,Oatley,-33.98084516,151.0789651,222320
Oak Flats Station,Oak,-34.57223075,150.8209079,252920
Nyngan Coach Stop,Nyngan,-31.562975,147.196784,28251
Northwood Wharf,Northwood,-33.832464,151.178664,206614
North Wollongong Station,North,-34.41259326,150.8913492,250010
North Sydney Wharf,North,-33.84496235,151.2187282,206099
North Sydney Station,North,-33.84120853,151.2074102,206010
North Strathfield Station,North,-33.85868801,151.0879861,213710
Normanhurst Station,Normanhurst,-33.72075274,151.0972405,207620
Nimmitabel Coach Stop,Nimmitabel,-36.513522,149.283734,26312
Niagara Park Station,Niagara,-33.38333131,151.3542821,225060
Newtown Station,Newtown,-33.89788301,151.1799247,204210
Newcastle Interchange,Wickham,-32.924308,151.75965,229310
Newcastle Beach Light Rail,Newcastle,-32.927465,151.786195,2300136
Nevertire Coach Stop,Nevertire,-31.8375,147.717,28261
Neutral Bay Wharf,Neutral,-33.84231965,151.2193125,208943
Neutral Bay Junction,Neutral,-33.831653,151.22274,208953
Nerong Coach Stop,Nerong,-32.511459,152.211271,24233
Narwee Station,Narwee,-33.94751814,151.0697482,220920
Narromine Coach Stop,Narromine,-32.234112,148.240167,28211
Narrandera Station,Narrandera,-34.740516,146.556999,27001
Narrabri Station,Narrabri,-30.325322,149.79202,23901
Narrabeen B-Line,Narrabeen,-33.713467,151.297416,2101130
Narara Station,Narara,-33.39478578,151.3443079,2250772
Nambucca Heads Town Coach Stop,Nambucca,-30.642027,153.002309,244826
Nambucca Heads Station,Nambucca,-30.629129,152.977472,24481
Nambucca Heads Plaza Coach Stop,Nambucca,-30.654536,152.988757,244833
Muttama Coach Stop,Muttama,-34.803942,148.117531,27221
Muswellbrook Station,Muswellbrook,-32.26749261,150.8903202,233310
Museum Station,Sydney,-33.87569985,151.2101064,200040
Murwillumbah Station,Murwillumbah,-28.329887,153.402432,24841
Murrurundi Town Coach Stop (southbound),Murrurundi,-31.763464,150.83416,233812
Murrurundi Town Coach Stop (northbound),Murrurundi,-31.763464,150.83416,233813
Murrurundi Station,Murrurundi,-31.768429,150.839451,23381
Murrumbateman Coach Stop (southbound),Murrumbateman,-34.969187,149.030613,25823
Murrumbateman Coach Stop (northbound),Murrumbateman,-34.968544,149.030382,25822
Mulwala Coach Stop,Mulwala,-35.989306,146.005061,26471
Mullumbimby Station,Mullumbimby,-28.554009,153.503098,24821
Mullaley Coach Stop,Mullaley,-31.097917,149.910359,237913
Mulgrave Station,Mulgrave,-33.62668367,150.830637,275610
Mudgee Town Coach Stop,Mudgee,-32.590463,149.585036,28505
Mudgee Station,Mudgee,-32.601146,149.587392,28504
Mount Victoria Station,Mount,-33.5881116,150.2569734,278610
Mount Russell turnoff Coach Stop,Little,-29.72633,150.937034,23601
Mount Lambie Coach Stop,Mount,-33.454095,149.987554,279084
Mount Kuring-gai Station,Mount,-33.65300164,151.1368223,208010
Mount George turnoff Coach Stop,Killawarra,-31.897769,152.314858,24296
Mount Druitt Station,Mount,-33.76954233,150.8197988,277010
Mount Colah Station,Mount,-33.67202205,151.1144926,207910
Moss Vale Station,Moss,-34.54795977,150.3719897,257710
Mosman Bay Wharf,Mosman,-33.83847631,151.2323381,208877
Mortdale Station,Mortdale,-33.97058667,151.0812881,222310
Morisset Station,Morisset,-33.10924629,151.4877339,226410
Moree Town Coach Stop,Moree,-29.461275,149.840305,24003
Moree Station,Moree,-29.473849,149.848164,24001
Moore Park Light Rail,Moore,-33.89376,151.22178,202195
Moonbi Coach Stop,Moonbi,-31.021885,151.06988,23532
Mooball Coach Stop,Mooball,-28.441619,153.491795,248323
Mona Vale B-Line,Mona,-33.677752,151.304356,2103108
Molong Coach Stop,Molong,-33.092607,148.871452,28661
Moama Coach Stop,Moama,-36.114325,144.756149,27311
Mittagong Station,Mittagong,-34.45270638,150.4476899,257510
Miranda Station,Miranda,-34.03635478,151.1028535,222810
Minto Station,Minto,-34.02714972,150.8425967,256610
Minnamurra Station,Minnamurra,-34.62569976,150.8522575,253310
Mindaribba Station,Mindaribba,-32.66932312,151.5843137,232050
Milsons Point Wharf,Milsons,-33.84939899,151.2106384,20611
Milsons Point Station,Milsons,-33.84589277,151.211825,206110
Millthorpe Town Coach Stop,Millthorpe,-33.445663,149.185235,27981
Millthorpe Station,Millthorpe,-33.448714,149.182802,279821
Michelago Coach Stop,Michelago,-35.70383,149.158302,26203
Metford Station,Metford,-32.76487575,151.6178682,232310
Merrylands Station,Merrylands,-33.8363502,150.9928633,216010
Merimbula Coach Stop,Merimbula,-36.888775,149.908959,25481
Menindee Station,Menindee,-32.389345,142.424697,28791
Mendooran Coach Stop,Mendooran,-31.823036,149.122301,28421
Menangle Station,Menangle,-34.12520137,150.7444307,256810
Menangle Park Station,Menangle,-34.1037012,150.7449558,256310
Medlow Bath Station,Medlow,-33.67387612,150.2807859,278030
Meadowbank Wharf,Meadowbank,-33.82114791,151.0898782,211497
Meadowbank Station,Meadowbank,-33.81623815,151.0900609,211430
Meadow Flat Coach Stop,Meadow,-33.434702,149.92069,279513
McMahons Point Wharf,McMahons,-33.84865057,151.2062986,20601
Matong Coach Stop,Matong,-34.767801,146.918673,26522
Mathoura Coach Stop,Mathoura,-35.812936,144.90272,27102
Mascot Station,Mascot,-33.92318797,151.1872531,202010
Marulan Station,Marulan,-34.70950062,150.0064192,257940
Martins Creek Station,Martins,-32.55868695,151.618509,242050
Martin Place Station,Sydney,-33.86787091,151.2115912,200030
Marrickville Station,Marrickville,-33.91409037,151.1540328,220410
Marion Light Rail,Leichhardt,-33.88384696,151.1450903,204092
Marayong Station,Marayong,-33.74645111,150.9001991,214820
Manly Wharf,Manly,-33.80048291,151.2838762,209573
Manly Vale B-Line,Manly,-33.787011,151.266626,2093117
Manilla Coach Stop (southbound),Manilla,-30.749694,150.720829,23462
Manilla Coach Stop (northbound),Manilla,-30.74953,150.720855,23461
Manildra Coach Stop,Manildra,-33.186049,148.69459,28651
Mandurama Coach Stop,Mandurama,-33.648559,149.075348,27921
Maitland Station,Maitland,-32.73803543,151.5520999,232020
Macquarie Fields Station,Macquarie,-33.98480719,150.8788965,256410
Maclean Coach Stop,Maclean,-29.454593,153.197082,24632
Macksville Town Coach Stop (southbound),Macksville,-30.709131,152.920485,244721
Macksville Town Coach Stop (northbound),Macksville,-30.706781,152.920881,244722
Macksville Station,Macksville,-30.709283,152.913135,24471
Macdonaldtown Station,Macdonaldtown,-33.89666002,151.1862916,201520
Macarthur Station,Campbelltown,-34.07207332,150.7967371,256030
Lysaghts Station,Spring,-34.45484317,150.8760944,250510
Lyndhurst Coach Stop,Lynshurst,-33.673314,149.047645,27971
Lue Coach Stop,Lue,-32.6563,149.846119,28503
Lucknow Coach Stop,Lucknow,-33.347345,149.163449,28003
Longueville Wharf,Longueville,-33.836059,151.169351,206615
Long Flat Coach Stop,Long,-31.436226,152.492721,244651
Loftus Station,Loftus,-34.04513834,151.05132,223220
Lockhart Coach Stop,Lockhart,-35.220835,146.716392,26561
Lochinvar Station,Lochinvar,-32.72072004,151.4490865,232110
Llangothlin Coach Stop,Llangothlin,-30.128813,151.684701,23651
Liverpool Station,Liverpool,-33.92510969,150.9270542,217020
Little Hartley Coach Stop,Little,-33.569472,150.206734,2790129
Lithgow Station,Lithgow,-33.48050099,150.1574494,279010
Lismore Town Coach Stop,Lismore,-28.811176,153.275955,248021
Lismore Station,Lismore,-28.810107,153.268957,24806
Lisarow Station,Lisarow,-33.38231099,151.3698171,225070
Lindfield Station,Lindfield,-33.77518546,151.1691106,207010
Linden Station,Linden,-33.71500231,150.5052641,277820
Limeburners Creek Coach Stop,Limeburners,-32.605693,151.895849,2324152
Lilyfield Light Rail,Lilyfield,-33.87408114,151.1651053,204089
Lightning Ridge Coach Stop,Lightning,-29.427061,147.98034,28341
Lidcombe Station,Lidcombe,-33.86388935,151.0453895,214110
Lewisham West Light Rail,Lewisham,-33.89398857,151.1432381,204950
Lewisham Station,Lewisham,-33.89327853,151.1472725,204920
Leura Station,Leura,-33.71172185,150.3302704,278010
Leumeah Station,Leumeah,-34.0511705,150.8300507,256010
Leppington Station,Leppington,-33.9544,150.8081,217933
Lennox Head Coach Stop (southbound),Lennox,-28.794299,153.594044,24784
Lennox Head Coach Stop (northbound),Lennox,-28.797639,153.593009,24783
Leightonfield Station,Villawood,-33.8815017,150.9849671,216310
Leichhardt North Light Rail,Lilyfield,-33.87498209,151.1538683,204090
Leeton Town Coach Stop,Leeton,-34.557147,146.41094,27053
Leeton Station,Leeton,-34.554328,146.397659,27051
Lawson Station,Lawson,-33.71914485,150.4298244,278310
Lavington Coach Stop,Lavington,-36.049583,146.934693,26411
Laurel Hill Coach Stop,Laurel,-35.604175,148.093556,26491
Lapstone Station,Lapstone,-33.77369788,150.6427966,275030
Lane Cove Bus Interchange,Lane,-33.81234789,151.1712926,206618
Lakemba Station,Lakemba,-33.92012699,151.0759555,219510
Lake Cargelligo Coach Stop,Lake,-33.299081,146.374193,26721
Kyogle Station,Kyogle,-28.620185,153.001284,24741
Kurraba Point Wharf,Kurraba,-33.84342906,151.2218291,208946
Krambach Coach Stop,Krambach,-32.051628,152.260192,24295
Kotara Station,Kotara,-32.94139627,151.6984933,228910
Kootingal Station,Kootingal,-31.058731,151.056154,23521
Koorawatha Coach Stop,Koorawatha,-34.038985,148.554832,28071
Koolewong Station,Koolewong,-33.46697442,151.318655,225620
Kogarah Station,Kogarah,-33.96214931,151.1326415,221710
Kissing Point Wharf,Putney,-33.8316867,151.1019831,211217
Kirribilli Wharf,Kirribilli,-33.84936725,151.2202795,206132
Kirrawee Station,Kirrawee,-34.03501535,151.0713153,223230
Kingswood Station,Kingswood,-33.7582512,150.7198236,274720
Kingsgrove Station,Kingsgrove,-33.94063602,151.1004839,220810
Kingsford Light Rail,Kingsford,-33.921856,151.226878,203295
Kingscliff Coach Stop (southbound),Kingscliff,-28.25632,153.576559,248731
Kingscliff Coach Stop (northbound),Kingscliff,-28.255587,153.575369,248730
Kings Cross Station,Potts,-33.87454091,151.2223342,201110
Killara Station,Killara,-33.76540899,151.1616474,207110
Kiama Station,Kiama,-34.67251778,150.8546947,253330
Kew Coach Stop,Kew,-31.634943,152.722618,24396
Kensington Light Rail,Kensington,-33.909358,151.223357,203361
Kendall Station,Kendall,-31.635404,152.706288,24391
Kempsey Station,Kempsey,-31.076852,152.833041,24401
Kembla Grange Station,Kembla,-34.47021836,150.8173407,253010
Kelso Coach Stop,Kelso,-33.418602,149.604502,279511
Katoomba Station,Katoomba,-33.71157344,150.3111602,278020
Karuah Coach Stop,Karuah,-32.654391,151.964323,2324158
Kandos Coach Stop,Kandos,-32.859014,149.969607,28481
Juniors Kingsford Light Rail,Kingsford,-33.925055,151.229181,203294
Junee Station,Junee,-34.87026,147.583766,26631
Jubilee Park Light Rail,Glebe,-33.87537487,151.1787626,203756
John Street Square Light Rail,Pyrmont,-33.86722922,151.1918901,200948
Jindabyne Coach Stop,Jindabyne,-36.41471,148.622126,26271
Jerilderie Coach Stop,Jerilderie,-35.358876,145.739697,27161
Jeffrey Street Wharf,Jeffrey,-33.849738,151.213967,206133
Jannali Station,Jannali,-34.01612866,151.0646645,222620
Jackadgery Coach Stop,Jackadgery,-29.576784,152.550471,24602
Ivanhoe Station,Ivanhoe,-32.914304,144.311759,28782
Inverell Coach Stop,Inverell,-29.775287,151.110168,23604
International Airport Station,Mascot,-33.93498823,151.1658913,202030
Ingleburn Station,Ingleburn,-33.9970797,150.8649205,256510
Iluka Coach Stop,Iluka,-29.408259,153.351653,246621
Ilford Coach Stop,Ilford,-32.958304,149.857936,28506
Hurstville Station,Hurstville,-33.96745356,151.1027571,222010
Hurlstone Park Station,Hurlstone,-33.91042225,151.1320925,219310
Huntleys Point Wharf,Huntleys,-33.84192145,151.1422376,211131
Hunters Hill Wharf,Hunters,-33.835744,151.160663,2110114
Howlong Coach Stop,Howlong,-35.978756,146.625294,26431
Hornsby Station,Hornsby,-33.70280124,151.098494,207720
Honeysuckle Light Rail,Newcastle,-32.92647,151.765765,2300130
Homebush Station,Homebush,-33.86673988,151.0864413,214010
Holsworthy Station,Holsworthy,-33.96320957,150.9568946,217310
Hilldale Station,Hilldale,-32.50450378,151.6497678,242040
High Street Station,Maitland,-32.741449,151.5636893,232010
Hexham Station,Hexham,-32.82947029,151.6844171,232210
Hermidale Coach Stop,Hermidale,-31.546814,146.725963,28312
Henty Station,Henty,-35.517886,147.035371,26581
Helensburgh Station,Helensburgh,-34.17686988,150.9948249,250810
Heathcote Station,Heathcote,-34.08823661,151.0080024,223320
Hazelbrook Station,Hazelbrook,-33.72397351,150.4546038,277910
Haymarket Light Rail,Haymarket,-33.881447,151.205334,2000168
Hay Coach Stop,Hay,-34.5205,144.837548,27111
Hawthorne Light Rail,Leichhardt,-33.87972548,151.1471308,204091
Hawks Nest Coach Stop,Hawks,-32.672705,152.177658,2324153
Hawkesbury River Station,Brooklyn,-33.54678835,151.2265104,208310
Hastings Point Coach Stop,Hastings,-28.354774,153.572477,24894
Hartley Coach Stop,Hartley,-33.545024,150.175419,2790131
Harris Park Station,Harris,-33.82326002,151.0076387,215010
Harden Town Coach Stop,Harden,-34.55424,148.367228,25873
Harden Station,Harden,-34.553349,148.371322,25871
Hampton Coach Stop,Hampton,-33.639449,150.057173,2790132
Hamilton Station,Hamilton,-32.91871348,151.7488722,230310
Hallidays Point Coach Stop,Darawank,-32.082525,152.480399,2428170
Gymea Station,Gymea,-34.03489294,151.0854766,222710
Guyra Coach Stop,Guyra,-30.220216,151.67152,23653
Gunning Station,Gunning,-34.779691,149.261031,25811
Gunnedah Station,Gunnedah,-30.979376,150.247996,23801
Gundagai Coach Stop,Gundagai,-35.06297,148.101696,27222
Gulgong Coach Stop,Gulgong,-32.36437,149.533026,28521
Gulargambone Coach Stop,Gulargambone,-31.331091,148.472993,28281
Guildford Station,Guildford,-33.8545057,150.984361,216110
Grong Grong Coach Stop,Grong,-34.740092,146.782746,26521
Griffith Town Coach Stop,Griffith,-34.289098,146.050858,536118
Griffith Station,Griffith,-34.28682,146.047734,26801
Greta Station,Greta,-32.68662215,151.3840895,233410
Grenfell Coach Stop,Grenfell,-33.893479,148.160537,28101
Greenwich Wharf,Greenwich,-33.834036,151.182367,206519
Greenwich Point Wharf,Greenwich,-33.84209993,151.1808023,206518
Green Square Station,Alexandria,-33.90606259,151.2024745,201710
Gravesend Coach Stop,Gravesend,-29.58381,150.338048,24011
Granville Station,Granville,-33.83317598,151.0124947,214240
Grafton Station,South,-29.703905,152.941692,24601
Goulburn Station,Goulburn,-34.75846191,149.7192744,258010
Goulburn Big Merino Coach Stop,Goulburn,-34.773038,149.692324,2580172
Gosford Station,Gosford,-33.42388261,151.3417109,225040
Gordon Station,Gordon,-33.75600864,151.154528,207210
Goonellabah Coach Stop,Goonellabah,-28.811465,153.344105,24805
Good Forest Coach Stop,Lowther,-33.615754,150.112188,2790130
Gongolgon Coach Stop,Gongolgon,-30.349861,146.89596,283921
Gloucester Town Coach Stop,Gloucester,-32.00678,151.95721,24224
Gloucester Station,Gloucester,-32.004766,151.966735,24221
Glenfield Station,Glenfield,-33.97236827,150.8928072,216710
Glencoe Coach Stop,Glencoe,-29.925909,151.723766,23652
Glenbrook Station,Glenbrook,-33.76900437,150.6208342,277310
Glen Innes Coach Stop,Glen,-29.7383,151.7377,23701
Glebe Light Rail Light Rail,Glebe,-33.87715587,151.1873612,203755
Girilambone Coach Stop,Girilambone,-31.711945,148.665964,28318
Gilgandra Coach Stop,Gilgandra,-31.711945,148.665964,28271
Gilgai Coach Stop,Gilgai,-29.853765,151.117179,23602
Gibraltar Range Coach Stop,Gilbraltar,-29.513902,152.312939,23702
Geurie Station,Geurie,-32.398277,148.830581,28311
Gerringong Station,Gerringong,-34.74488594,150.8175078,253420
Gerogery Coach Stop,Gerogery,-35.83613,146.993483,264267
Garden Island Wharf,Potts,-33.85813587,151.2299226,201119
Ganmain Coach Stop,Ganmain,-34.793782,147.03889,27021
Galong Coach Stop,Galong,-34.601176,148.557725,25851
Frederickton Coach Stop,Frederickton,-31.035596,152.866693,244068
Forster Keys Coach Stop,Forster,-32.212959,152.525439,24282
Forster Coach Stop,Forster,-32.18311,152.513002,24281
Forbes Coach Stop,Forbes,-33.379132,148.01189,28711
Flemington Station,Homebush,-33.86482229,151.0697665,214020
Fish Market Wharf,Pyrmont,-33.873317,151.191755,200945
Fish Market Light Rail,Pyrmont,-33.87091734,151.192293,200952
Finley Coach Stop,Finley,-35.639939,145.579341,27131
Faulconbridge Station,Faulconbridge,-33.69648835,150.5350339,277610
Fassifern Station,Fassifern,-32.9857882,151.5812509,228330
Fairy Meadow Station,Fairy,-34.39583411,150.8961702,251910
Fairfield Station,Fairfield,-33.87233065,150.9570711,216510
Exhibition Centre Light Rail,Sydney,-33.87719386,151.1997027,2000203
Exeter Station,Exeter,-34.61377487,150.3173447,257930
Evans Head Coach Stop,Evans,-29.118619,153.431145,24731
Euston Coach Stop,Euston,-34.577328,142.744641,27371
Eungai Station,Eungai,-30.8497,152.9001,24411
Eumungurie Coach Stop,Eumungerie,-31.949295,148.619853,28315
Eugowra Coach Stop,Eugowra,-33.427064,148.369866,28061
Euabalong West Station,Euabalong,-33.0548,146.3909,28771
Euabalong West Coach Stop,Euabalong,-33.055715,146.394249,28777
Euabalong Coach Stop,Euabalong,-33.108964,146.473193,28775
ES Marks Light Rail,Moore,-33.905813,151.223925,203362
Erskineville Station,Erskineville,-33.9008581,151.1853076,204310
Engadine Station,Engadine,-34.06789901,151.0146529,223310
Emu Plains Station,Emu,-33.74556778,150.6722867,275020
Emmdale Coach Stop,Wilcannia,-31.653308,144.268255,28361
Eltham Coach Stop,Eltham,-28.755837,153.394117,24803
Edmondson Park Station,Edmondson,-33.9693,150.8587,217426
Edgecliff Station,Edgecliff,-33.87925148,151.2361614,202710
Eden Coach Stop,Eden,-37.065712,149.906725,25511
Eastwood Station,Eastwood,-33.7900214,151.0822335,212210
East Richmond Station,Richmond,-33.60179614,150.759234,275310
East Maitland Station,East,-32.74487523,151.5874213,232330
East Hills Station,East,-33.96160677,150.9848973,221320
Dungog Station,Dungog,-32.4022901,151.7595395,242010
Dunedoo Coach Stop,Dunedoo,-32.015794,149.396238,28441
Dundee Coach Stop,Dundee,-29.5696,151.8659,237021
Dulwich Hill Station,Dulwich,-33.91110223,151.1409894,220310
Dulwich Hill Light Rail,Dulwich,-33.91030497,151.1400854,220359
Dulwich Grove Light Rail,Dulwich,-33.9050373,151.1390126,220355
Dubbo Station,Dubbo,-32.245012,148.608182,28301
Drummoyne Wharf,Drummoyne,-33.84548995,151.1570955,204761
Douglas Park Station,Douglas,-34.18322665,150.7099378,256910
Double Bay Wharf,Double,-33.87334922,151.2425813,202823
Dora Creek Station,Dora,-33.08318747,151.5011621,226420
Doonside Station,Doonside,-33.76398502,150.8683521,276710
Domestic Airport Station,Mascot,-33.93365963,151.1807857,202020
Derriwong Coach Stop,Derriwong,-33.097654,147.335882,28776
Denistone Station,Denistone,-33.79990618,151.0875503,211410
Deniliquin Coach Stop,Deniliquin,-35.52882,144.96153,27101
Delungra Coach Stop,Delungra,-29.654333,150.830022,24031
Deepwater Coach Stop,Deepwater,-29.4383,151.8471,23711
Dee Why B-Line,Dee,-33.752971,151.286433,2099207
Darnick Station,Ivanhoe,-32.851214,143.624896,28781
Darlington Point Coach Stop,Darlington,-34.567662,146.000244,27061
Darling Point Wharf,Darling,-33.8664518,151.2394906,202727
"Darling Harbour, Pier 26",Pyrmont,-33.870136,151.201881,2000269
"Darling Harbour, Convention Center Wharf",Pyrmont,-33.872469,151.199652,2000280
"Darling Harbour, Aquarium Wharf",Pyrmont,-33.86974,151.201214,2000268
Darling Harbour - Wharf 1 and 2,Sydney,-33.866467,151.201175,2000270
Darawank Coach Stop,Darawank,-32.091869,152.478783,2428168
Dapto Station,Dapto,-34.49209044,150.7923283,253020
Dalgety Coach Stop,Dalgety,-36.50329,148.834386,26283
Cundletown Coach Stop,Cundletown,-31.899585,152.51905,243063
Cullen Bullen Coach Stop,Cullen,-33.299749,150.032939,2790135
Culcairn Station,Culcairn,-35.666107,147.038128,26601
Cudal Coach Stop,Cudal,-33.286363,148.739524,28641
Croydon Station,Croydon,-33.88323425,151.1154882,213210
Crown Street Light Rail,Newcastle,-32.926418,151.77715,2300134
Cronulla Station,Cronulla,-34.05625171,151.1515424,223020
Cringila Station,Port,-34.46717554,150.8784228,250520
Cremorne Point Wharf,Cremorne,-33.84787838,151.2308584,209037
Craven Coach Stop,Craven,-32.1575,151.9494,24225
Craboon Junction Coach Stop,Dunedoo,-32.03896,149.476512,284421
Cowra Coach Stop,Cowra,-33.834717,148.688777,27941
Cowper Coach Stop,Cowper,-29.573336,153.073751,24604
Cowan Station,Cowan,-33.59310763,151.1717177,208120
Corrimal Station,Corrimal,-34.37572692,150.9049716,251820
Corowa Coach Stop,Corowa,-35.998779,146.391492,26461
Cootamundra Station,Cootamundra,-34.641038,148.030649,25901
Coopernook Coach Stop,Coopernook,-31.824628,152.612831,24261
Coonamble Coach Stop,Coonamble,-30.955843,148.389184,28292
Coonabarabran Coach Stop,Coonabarabran,-31.279073,149.279362,23571
Cooma Coach Stop,Cooma,-36.234146,149.126521,263027
Coolamon Station,Coolamon,-34.816045,147.201858,27011
Coolamon Coach Stop,Coolamon,-34.815817,147.199995,27012
Coolah Coach Stop,Coolah,-31.825022,149.718902,28431
Coolac Coach Stop,Coolac,-34.929046,148.166247,27271
Coolabah Coach Stop,Coolabah,-31.027687,146.713126,28317
Convention Light Rail,Sydney,-33.87262846,151.198123,2000204
Coniston Station,Coniston,-34.43745489,150.8855292,250030
Condobolin Town Coach Stop,Condobolin,-33.090038,147.147115,28773
Condobolin Station,Condobolin,-33.08391,147.153285,28772
Concord West Station,Concord,-33.84873998,151.0856262,213810
Como Station,Como,-34.00426616,151.0679988,222610
Collaroy B-Line,Collaroy,-33.731811,151.301239,209742
Coledale Station,Coledale,-34.28938913,150.9433353,251530
Coffs Harbour Station,Coffs,-30.3052,153.138175,24501
Coffs Harbour Park Beach Plaza Coach Stop,Coffs,-30.281951,153.131421,245021
Coffs Harbour Health Campus Coach Stop,Coffs,-30.316983,153.093499,2450148
Cockle Creek Station,Boolaroo,-32.94270992,151.6233813,228430
Cobbadah Coach Stop,Cobbadah,-30.230845,150.577905,23471
Cobar Coach Stop,Cobar,-31.498306,145.83831,283515
Coalcliff Station,Coalcliff,-34.24225043,150.9772427,250850
Clyde Station,Granville,-33.83628176,151.0174895,214230
Clunes Coach Stop,Clunes,-28.731116,153.405844,24804
Clarendon Station,Clarendon,-33.60895245,150.7885628,275630
Clandulla Coach Stop,Clandulla,-32.903535,149.946374,28484
Civic Light Rail,Newcastle,-32.927024,151.771687,2300133
Circular Quay Station,Sydney,-33.86132358,151.2103898,200020
Chiswick Wharf,Chiswick,-33.84554855,151.1417808,2046159
Chinderah Coach Stop (southbound),Chinderah,-28.232443,153.556665,24872
Chinderah Coach Stop (northbound),Chinderah,-28.233483,153.555962,24871
Chinatown Light Rail,Haymarket,-33.878579,151.205567,2000169
Chester Hill Station,Chester,-33.8835435,150.9994456,216220
Cheltenham Station,Cheltenham,-33.75586837,151.0788513,211920
Chatsworth Island Coach Stop,Chatsworth,-29.381595,153.233697,24699
Charbon Coach Stop,Charbon,-32.880988,149.965112,28482
Central Station,Haymarket,-33.88388163,151.2058293,200060
Casula Station,Casula,-33.94981838,150.911946,217030
Castle Hill Bus Interchange,Castle,-33.7321484,151.0064202,2154190
Casino Station,Casino,-28.860663,153.038275,24701
Carrathool turnoff Coach Stop,Carrathool,-34.466659,145.416181,27112
Carramar Station,Carramar,-33.88431779,150.9615486,216330
Carlton Station,Carlton,-33.96826632,151.1243369,221810
Caringbah Station,Caringbah,-34.04161039,151.1227476,222910
Cardiff Station,Cardiff,-32.94182388,151.6629801,228520
Carcoar Coach Stop,Carcoar,-33.611524,149.140096,27911
Capitol Square Light Rail,Haymarket,-33.87975438,151.2056556,2000200
Capertee Coach Stop,Capertee,-33.146391,149.984257,28461
Canterbury Station,Canterbury,-33.91167214,151.1182133,219320
Canowindra Coach Stop,Canowindra,-33.56361,148.65979,28041
Canley Vale Station,Canley,-33.88679793,150.943987,216610
Campsie Station,Campsie,-33.91048116,151.1026308,219410
Campbelltown Station,Campbelltown,-34.06383549,150.813929,256020
Cabramatta Station,Cabramatta,-33.89486655,150.9388206,216620
Cabarita Wharf,Cabarita,-33.84096251,151.1164853,21371
Byron Bay Interchange,Byron,-28.644828,153.612473,248149
Byrock Coach Stop,Byrock,-30.6632,146.4037,28314
Burwood Station,Burwood,-33.87731465,151.1047622,213410
Burringbar Coach Stop,Burringbar,-28.430064,153.470608,24833
Burren Junction Coach Stop,Burren,-30.1036,148.966504,23861
Burrell Creek Coach Stop,Burrell,-31.9522,152.2957,24292
Burrawang Coach Stop,Burrawang,-34.593273,150.516609,2577144
Burradoo Station,Burradoo,-34.49401919,150.3983388,257620
Buronga Coach Stop,Buronga,-34.171219,142.185386,27391
Bungwahl Coach Stop,Bungwahl,-32.387086,152.444497,24234
Bungendore Station,Bungendore,-35.255778,149.446409,26211
Bundarra Coach Stop,Bundarra,-30.171575,151.075729,23591
Bundanoon Station,Bundanoon,-34.65613474,150.2987371,257810
Bumbaldry Coach Stop,Bumbaldry,-33.901793,148.466454,27942
Bulli Station,Bulli,-34.33448098,150.9147439,251610
Bullaburra Station,Bullaburra,-33.72360616,150.4146074,278410
Bulahdelah Coach Stop,Bulahdelah,-32.409663,152.210861,24231
Brunswick Heads Coach Stop,Brunswick,-28.54016,153.550552,24832
Broken Hill Town Coach Stop,Broken,-31.960181,141.460489,28802
Broken Hill Station,Broken,-31.959275,141.466665,28801
Broadwater Coach Stop,Broadwater,-29.010026,153.435869,24721
Broadmeadow Station,Broadmeadow,-32.92301689,151.734686,229210
Bridge Street Light Rail,Sydney,-33.864128,151.207465,2000177
Brewarrina Coach Stop,Brewarrina,-29.96192,146.861301,28391
Bredbo Coach Stop,Bredbo,-35.955665,149.14802,26261
Branxton Station,Branxton,-32.66225215,151.3456449,233510
Bowral Station,Bowral,-34.47812317,150.4166585,257610
Bowning Coach Stop,Bowning,-34.767715,148.814797,25824
Bourke Coach Stop,Bourke,-30.094494,145.935178,28401
Boppy Mountain Coach Stop,Canbelego,-31.531,146.2831,28353
Booral Coach Stop,Booral,-32.466585,151.95947,24251
Booragul Station,Booragul,-32.97142254,151.6046902,228410
Bondi Junction Station,Bondi,-33.89120228,151.2483843,202210
Bombo Station,Bombo,-34.6580285,150.8539755,253320
Bombala Coach Stop,Bombala,-36.911161,149.240322,26322
Bomaderry Station,Bomaderry,-34.85377666,150.6098088,254110
Bolivia Coach Stop,Bolivia,-29.289661,151.960969,23722
Boggabri Station,Boggabri,-30.703834,150.039827,23821
Bogangar Coach Stop,Bogangar,-28.332352,153.5697,24881
Bogan Gate Coach Stop,Bogan,-33.107693,147.803932,28761
Blighty Coach Stop,Blighty,-35.591983,145.287219,27132
Blayney Station,Blayney,-33.52704,149.254516,27991
Blaxland Station,Blaxland,-33.74357659,150.6095957,277410
Blackwattle Bay Wharf,Glebe,-33.871362,151.185199,203783
Blacktown Station,Blacktown,-33.76822903,150.9075105,214810
Blackheath Station,Blackheath,-33.63288104,150.284345,278510
Birrong Station,Birrong,-33.8932786,151.0240413,214320
Birchgrove Wharf,Birchgrove,-33.84645581,151.1863405,204155
Binya Coach Stop,Binya,-34.229159,146.344388,26653
Binnaway Coach Stop,Binnaway,-31.55185,149.378649,23951
Binna Burra Coach Stop,Binna,-28.706562,153.497345,24792
Biniguy Coach Stop,Biniguy,-29.536002,150.20611,23991
Bingara Coach Stop (southbound),Bingara,-29.869512,150.572223,240422
Bingara Coach Stop (northbound),Bingara,-29.868516,150.572172,240421
Binalong Coach Stop (southbound),Binalong,-34.67597,148.634203,25841
Binalong Coach Stop (northbound),Binalong,-34.672661,148.629146,25842
Billinudgel Coach Stop,Billinudgel,-28.505065,153.528385,24831
Bibbenluke Coach Stop,Bibbenluke,-36.811109,149.280902,26321
Bexley North Station,Bexley,-33.93756601,151.1133973,220720
Bexhill Coach Stop,Bexhill,-28.76554,153.34515,24801
Beverly Hills Station,Beverly,-33.94884857,151.0816922,220910
Berry Station,Berry,-34.78033267,150.6969659,253510
Berrigan Coach Stop,Berrigan,-35.658002,145.812199,27121
Berridale Coach Stop (southbound),Berridale,-36.365863,148.827031,26281
Berridale Coach Stop (northbound),Berridale,-36.365118,148.82788,26282
Berowra Station,Berowra,-33.6236572,151.1529711,208110
Beresfield Station,Beresfield,-32.79894599,151.6578627,232230
Berala Station,Berala,-33.87183567,151.0324418,214120
Bendick Murrell Coach Stop,Bendick,-34.159821,148.445796,28031
Ben Bullen Coach Stop,Ben,-33.218809,150.021411,2790133
Bemboka Coach Stop,Bemboka,-36.627333,149.568778,25501
Belmore Station,Belmore,-33.91721798,151.0887332,219210
Bellata Station,Bellata,-29.9183,149.7905,23971
Bellata Coach Stop (southbound),Bellata,-29.91767,149.791308,239712
Bellata Coach Stop (northbound),Bellata,-29.917328,149.791068,23972
Bellambi Station,Bellambi,-34.36331842,150.9099025,251810
Bell Station,Bell,-33.50568554,150.2788861,278620
Belbora Coach Stop,Belbora,-32.012693,152.178504,24227
Bega Coach Stop,Bega,-36.673857,149.842188,25503
Beecroft Station,Beecroft,-33.74995417,151.0662982,211910
Beckom Coach Stop,Beckom,-34.331341,146.958477,26652
Batlow Coach Stop,Batlow,-35.520277,148.14722,27301
Bathurst Station,Bathurst,-33.42562703,149.5832161,279538
Barraba Coach Stop,Barraba,-30.380272,150.609609,23472
Barmedman Coach Stop,Barmedman,-34.143373,147.386609,26681
Bargo Station,Bargo,-34.29136493,150.5802091,257420
Barellan Coach Stop,Barellan,-34.284782,146.572035,26655
Bardwell Park Station,Bardwell,-33.93161666,151.1248574,220710
Barangaroo Wharf,Barangaroo,-33.864377,151.200591,2000441
Baradine Coach Stop,Baradine,-30.949333,149.066505,23961
Bankstown Station,Bankstown,-33.91786454,151.0346869,220010
Banksia Station,Banksia,-33.94528645,151.1404316,221610
Bangalow Coach Stop,Bangalow,-28.686545,153.5248,24791
Balranald Coach Stop,Balranald,-34.640572,143.564637,27151
Balmain Wharf,Balmain,-33.85471605,151.1863604,204157
Balmain East Wharf,Balmain,-33.85696725,151.1959756,20414
Ballina West Coach Stop,West,-28.864101,153.533926,24781
Ballina Coach Stop,Ballina,-28.86933,153.560592,24782
Awaba Station,Awaba,-33.0129204,151.5416347,228310
Austinmer Station,Austinmer,-34.30641046,150.9293128,251540
Auburn Station,Auburn,-33.8492696,151.032867,214410
Attunga Coach Stop,Attunga,-30.92869,150.845836,23451
Asquith Station,Asquith,-33.68876996,151.1080252,207730
Ashfield Station,Ashfield,-33.88755061,151.1255042,213110
Artarmon Station,Artarmon,-33.80890264,151.1852939,206410
Arncliffe Station,Arncliffe,-33.93645619,151.1472995,220520
Armidale Station,Armidale,-30.515373,151.651753,23501
Arlington Light Rail,Dulwich,-33.90184127,151.1380613,220322
Ariah Park Coach Stop,Ariah,-34.347706,147.221084,26651
Ardlethan Coach Stop,Ardlethan,-34.357807,146.902563,26654
Alstonville Coach Stop,Alstonville,-28.8418,153.44001,24771
Allworth Coach Stop,Allworth,-32.531345,151.944198,24253
Allawah Station,Allawah,-33.96958391,151.11433,222020
Alectown Coach Stop,Alectown,-32.933121,148.240234,28703
Albury Station,East,-36.084068,146.924691,26401
Albury QEII Square,Albury,-36.080795,146.917218,26403
Albion Park Station,Albion,-34.56264671,150.7984997,252710
Adelong Coach Stop,Adelong,-35.308251,148.063498,27291
Adamstown Station,Adamstown,-32.93372988,151.7200807,228920
Aberdeen Station,Aberdeen,-32.16710358,150.8920522,233610
Abbotsford Wharf,Abbotsford,-33.84367442,151.1281726,2046158